{
  "cities": [
    {
      "cityName": "Lisbon",
      "country": "Portugal",
      "emoji": "ðŸ‡µðŸ‡¹",
      "date": "2027-10-31T15:59:59.138Z",
      "notes": "My favorite city so far!",
      "position": {
        "lat": 38.727881642324164,
        "lng": -9.140900099907554
      },
      "id": "73930385"
    },
    {
      "cityName": "Madrid",
      "country": "Spain",
      "emoji": "ðŸ‡ªðŸ‡¸",
      "date": "2027-07-15T08:22:53.976Z",
      "notes": "",
      "position": {
        "lat": 40.46635901755316,
        "lng": -3.7133789062500004
      },
      "id": "17806751"
    },
    {
      "cityName": "Berlin",
      "country": "Germany",
      "emoji": "ðŸ‡©ðŸ‡ª",
      "date": "2027-02-12T09:24:11.863Z",
      "notes": "Amazing ðŸ˜ƒ",
      "position": {
        "lat": 52.53586782505711,
        "lng": 13.376933665713324
      },
      "id": "98443197"
    },
    {
      "id": "da04",
      "cityName": "Castiliscar",
      "country": "Spain",
      "emoji": "ðŸ‡ªðŸ‡¸",
      "date": "2024-07-25T18:45:21.889Z",
      "notes": "Nice people",
      "position": {
        "lat": "42.374209715279584",
        "lng": "-1.2494856240445664"
      }
    },
    {
      "id": "c6e4",
      "cityName": "Mouhers",
      "country": "France",
      "emoji": "ðŸ‡«ðŸ‡·",
      "date": "2024-07-26T06:37:35.443Z",
      "notes": "Nice city",
      "position": {
        "lat": "46.57370763054507",
        "lng": "1.7631698552473867"
      }
    }
  ]
}